Time, Latitude, Longitude, Roll, Pitch, Heading, Angle of Attack, Pitch Component of AoA, Sideslip, Glideslope
TIME(17956), 0.0976696223124572, -77.138095537198, 179, 35, 269, 148, 31, 0, -176
TIME(17958), 0.0991972915038929, -77.0268927799929, 179, 9, 269, 176, 3, 0, -175
TIME(17960), 0.100800341803823, -76.9101133955403, 179, -2, 269, 171, -9, -1, -173
TIME(17963), 0.102331727526984, -76.7984885498988, 179, 8, 268, 179, -1, -1, -171
TIME(17965), 0.104023789700352, -76.6751218185911, 179, 13, 268, 177, 2, -1, -169
TIME(17967), 0.105770968205717, -76.5476480298547, 179, 12, 269, 179, -1, -1, -167
TIME(17970), 0.107457514022145, -76.4244934815497, 179, 13, 269, 178, -2, 0, -166
TIME(17972), 0.109223063969874, -76.2954343175857, 179, 16, 269, 179, -1, 0, -164
TIME(17975), 0.111004660058899, -76.1589845133636, 179, -13, 254, 139, -30, -26, -148
TIME(17977), 0.111203367233469, -76.0385290743949, 171, -30, 242, 124, -46, -25, -151
TIME(17979), 0.108578442626723, -75.9337551020549, 172, -16, 244, 129, -38, -29, -143
TIME(17982), 0.103378067852593, -75.8375369044941, 169, 1, 259, 144, -28, -22, -143
TIME(17984), 0.0952276541722223, -75.7390463365189, 171, 11, 258, 153, -23, -12, -143
TIME(17987), 0.0849467142064972, -75.6417275599021, 170, 25, 256, 159, -13, -16, -138
TIME(17990), 0.0742778891954429, -75.5559175468949, 170, 40, 270, 167, -1, -13, -136
TIME(17992), 0.0660828215918742, -75.4960178454883, 175, 41, 257, 173, -2, -7, -136
TIME(17994), 0.0579396107285276, -75.4396770473392, 176, 51, 280, 171, 6, -6, -134
TIME(17996), 0.0499606561344097, -75.3864501514738, 170, 53, 254, 168, 6, -9, -132
TIME(17999), 0.0401637517532985, -75.3238858854152, 175, 60, 280, 166, 11, -7, -131
TIME(18001), 0.0308877517515286, -75.2662107333525, -175, 64, 266, 166, 13, -1, -130
TIME(18004), 0.0217669730073236, -75.2105159529814, 169, 67, 271, 162, 15, -9, -126
TIME(18006), 0.0133000390655962, -75.1599558235204, -173, 72, 271, 161, 18, -3, -127
TIME(18009), 0.00526521460822053, -75.1125558756613, 163, 76, 268, 157, 21, -7, -123
TIME(18011), -0.00216687944006406, -75.0691701930625, 239, 80, 266, 156, 22, -5, -123
TIME(18014), -0.00868228348144395, -75.0314131164272, 174, 83, 267, 154, 25, -6, -121
TIME(18016), -0.0155654229439492, -74.9916331170641, 130, 87, 240, 151, 28, -7, -104
TIME(18019), -0.0220317976646023, -74.9543645706742, 37, 85, 138, 147, 31, -7, -66
TIME(18022), -0.028114474270049, -74.9194941949563, 22, 81, 114, 145, 33, -7, -64
TIME(18024), -0.0334221810126214, -74.8893231835138, 19, 79, 110, 143, 35, -7, -65
TIME(18027), -0.0382444386457783, -74.862202431751, 17, 77, 108, 143, 36, -8, -66
TIME(18030), -0.0428350010763045, -74.8367074111292, 15, 76, 106, 142, 36, -8, -66
TIME(18032), -0.0471603481165777, -74.8130047801449, 14, 75, 105, 141, 37, -8, -67
TIME(18035), -0.0510064175226477, -74.7922110545512, 13, 74, 104, 141, 37, -8, -67
TIME(18037), -0.0546765769855442, -74.7726124099349, 13, 73, 104, 141, 38, -8, -68
TIME(18040), -0.0582081627146143, -74.7539925913039, 13, 73, 103, 140, 38, -8, -68
TIME(18043), -0.0614435452260807, -74.7371354577086, 12, 73, 103, 141, 37, -8, -68
TIME(18046), -0.0644554074665451, -74.7215909457135, 12, 73, 102, 141, 37, -8, -68
TIME(18048), -0.0672202905393912, -74.7074279651199, 11, 72, 102, 141, 38, -7, -69
TIME(18051), -0.0696977956392097, -74.694799542892, 11, 72, 102, 140, 38, -7, -69
TIME(18054), -0.0722257459146107, -74.6819640424526, 11, 72, 102, 141, 37, -7, -69
TIME(18056), -0.074089987065097, -74.6725405689444, 11, 72, 102, 141, 37, -8, -69
TIME(18059), -0.0763583190554141, -74.6611254781924, 11, 72, 102, 141, 37, -7, -69
TIME(18061), -0.0784295542293538, -74.6507307787008, 11, 72, 101, 141, 37, -7, -70
TIME(18064), -0.0804430338088303, -74.6406447539177, 11, 72, 101, 141, 37, -7, -70
TIME(18067), -0.0824037278178219, -74.6308386323456, 11, 72, 101, 141, 37, -7, -70
TIME(18070), -0.0843065594741284, -74.6213340417282, 11, 72, 101, 142, 36, -7, -70
TIME(18072), -0.0861664397137388, -74.6120651550274, 11, 72, 102, 142, 36, -7, -70
TIME(18075), -0.0874950357929333, -74.6054589277928, 11, 72, 101, 142, 36, -7, -71
TIME(18077), -0.0891322074844193, -74.5973318319627, 11, 72, 101, 143, 35, -7, -71
TIME(18079), -0.0903984739238606, -74.5910648719752, 12, 78, 102, 148, 30, -7, -71
TIME(18082), -0.0915726700520753, -74.5853088738407, 34, 89, 90, 161, 18, -4, -74
TIME(18084), -0.0928876936969716, -74.5788729736271, -172, 88, 90, 164, 14, -3, -107
TIME(18087), -0.0939640538844963, -74.573578706427, -153, 89, 90, 167, 12, -3, -92
TIME(18090), -0.0948244258495125, -74.5692832973709, 6, 86, 95, 164, 14, -3, -79
TIME(18093), -0.0955620664802003, -74.5654501339303, 11, 83, 100, 158, 20, -4, -75
TIME(18095), -0.0963925210080711, -74.5612091713215, 35, 88, 107, 156, 22, -5, -73
TIME(18098), -0.0972279683103724, -74.557455644686, -170, 73, 279, 175, 3, -2, -112
TIME(18100), -0.0975274981021845, -74.5563509798144, -166, 78, 284, 163, -16, 3, -86
TIME(18103), -0.0974120304283235, -74.5568679849664, 13, 82, 103, 178, -2, -1, -100
TIME(18105), -0.097413150112462, -74.5569501847904, -177, 89, 91, 61, -19, 54, 66
TIME(18110), -0.0974157307986218, -74.5569594291072, 159, 88, 91, 87, -13, -77, -54
TIME(18112), -0.0974200146080553, -74.5569581079942, 141, 88, 91, 127, 21, 45, -139
TIME(18114), -0.0974206191844561, -74.5569569825633, 139, 88, 91, 88, -85, -6, 34
TIME(18116), -0.097420024785563, -74.5569574159769, 141, 88, 91, 122, -28, 45, -96
TIME(18119), -0.0974196226426186, -74.5569574867928, 142, 88, 91, 22, -34, -1, 62
TIME(18121), -0.0974196430720504, -74.5569575000151, 142, 88, 91, 132, -48, -3, -54
TIME(18123), -0.0974194419730165, -74.556957538411, 143, 88, 91, 66, -65, 10, 50
TIME(18125), -0.097419468317868, -74.5569575588798, 142, 88, 91, 154, -12, -23, -69
TIME(18127), -0.0974194682076208, -74.5569575708312, 143, 88, 91, 66, -64, -7, 36
TIME(18130), -0.0974194040809428, -74.556957590029, 143, 88, 91, 137, -40, 15, -67
TIME(18132), -0.0974194565298308, -74.556957590029, 143, 88, 91, 145, 34, 3, -121
TIME(18134), -0.0974195235478543, -74.5569575900291, 143, 88, 91, 144, 29, 18, -127
TIME(18136), -0.097419514806373, -74.5569575900291, 143, 88, 91, 151, 25, -12, -105
TIME(18139), -0.0974194914957561, -74.556957590029, 143, 88, 91, 153, 9, 14, -108
TIME(18141), -0.0974194973234103, -74.556957590029, 143, 88, 91, 174, 1, -8, -85
TIME(18143), -0.0974194973234103, -74.556957590029, 143, 88, 91, 166, -9, -10, -84
TIME(18145), -0.0974194973234103, -74.556957590029, 143, 88, 91, 170, 1, -10, -87
TIME(18147), -0.0974194973234103, -74.556957590029, 143, 88, 91, 167, -9, -10, -79
TIME(18149), -0.0974194973234103, -74.556957590029, 143, 88, 91, 170, -4, -9, -87
TIME(18152), -0.0974194973234103, -74.556957590029, 143, 88, 91, 171, -3, -9, -85
TIME(18154), -0.0974194973234103, -74.556957590029, 143, 88, 91, 159, -8, 18, -97
TIME(18156), -0.0974194973234103, -74.556957590029, 143, 88, 91, 171, 4, -7, -90
TIME(18158), -0.0974194973234103, -74.556957590029, 143, 88, 91, 174, 1, -5, -90
TIME(18160), -0.0974194973234103, -74.556957590029, 143, 88, 91, 174, -5, -4, -86
TIME(18162), -0.0974194973234103, -74.556957590029, 143, 88, 91, 175, 0, -4, -90
TIME(18164), -0.0974194973234103, -74.556957590029, 143, 88, 91, 175, -2, -1, -91
TIME(18166), -0.0974194973234103, -74.556957590029, 143, 88, 91, 169, -5, -7, -84
TIME(18169), -0.0974194973234103, -74.556957590029, 143, 88, 91, 173, -2, -7, -87
TIME(18171), -0.0974194973234103, -74.556957590029, 143, 88, 91, 162, -5, 17, -98
TIME(18173), -0.0974194973234103, -74.556957590029, 143, 88, 91, 171, 3, 7, -99
TIME(18175), -0.0974194973234103, -74.556957590029, 143, 88, 91, 172, 3, -7, -91
TIME(18177), -0.0974194973234103, -74.556957590029, 143, 88, 91, 165, -7, -14, -79
TIME(18179), -0.0974194973234103, -74.556957590029, 143, 88, 91, 164, -12, -13, -75
TIME(18181), -0.0974194973234103, -74.556957590029, 143, 88, 91, 173, 4, -5, -93
TIME(18183), -0.0974194973234103, -74.556957590029, 143, 88, 91, 156, -13, 19, -93
TIME(18186), -0.0974194973234103, -74.556957590029, 143, 88, 91, 171, -6, -6, -84
TIME(18188), -0.0974194973234103, -74.556957590029, 143, 88, 91, 177, 2, 0, -94
TIME(18190), -0.0974194973234103, -74.556957590029, 143, 88, 91, 166, 6, 11, -103
TIME(18192), -0.0974194973234103, -74.556957590029, 143, 88, 91, 173, 0, -6, -95
TIME(18195), -0.0974194973234103, -74.556957590029, 143, 88, 91, 168, -1, -12, -85
TIME(18197), -0.0974194973234103, -74.556957590029, 143, 88, 91, 168, -6, -11, -84
TIME(18199), -0.0974194973234103, -74.556957590029, 143, 88, 91, 165, -9, -12, -78
TIME(18201), -0.0974194973234103, -74.556957590029, 143, 88, 91, 170, 0, -10, -87
TIME(18203), -0.0974194973234103, -74.556957590029, 143, 88, 91, 166, -1, 18, -102
TIME(18206), -0.0974194973234103, -74.556957590029, 143, 88, 91, 164, -13, -9, -76
TIME(18208), -0.0974194973234103, -74.556957590029, 143, 88, 91, 168, 8, 7, -103
TIME(18210), -0.0974194973234103, -74.556957590029, 143, 88, 91, 166, -5, 12, -96
TIME(18212), -0.0974194973234103, -74.556957590029, 143, 88, 91, 170, -2, 9, -96
TIME(18214), -0.0974194973234103, -74.556957590029, 143, 88, 91, 174, 0, -6, -89
TIME(18217), -0.0974194973234103, -74.556957590029, 143, 88, 91, 170, -6, -8, -83
TIME(18219), -0.0974194973234103, -74.556957590029, 143, 88, 91, 177, -2, -3, -89
TIME(18221), -0.0974194973234103, -74.556957590029, 143, 88, 91, 169, -2, -11, -85
TIME(18223), -0.0974194973234103, -74.556957590029, 143, 88, 91, 167, 12, -9, -87
TIME(18226), -0.0974194973234103, -74.556957590029, 143, 88, 91, 169, 7, -3, -96
TIME(18228), -0.0974194973234103, -74.556957590029, 143, 88, 91, 171, -3, -9, -85
TIME(18230), -0.0974194973234103, -74.556957590029, 143, 88, 91, 156, -19, -15, -68
TIME(18232), -0.0974194973234103, -74.556957590029, 143, 88, 91, 172, -7, -5, -84
TIME(18234), -0.0974194973234103, -74.556957590029, 143, 88, 91, 169, -1, -11, -86
TIME(18237), -0.0974194973234103, -74.556957590029, 143, 88, 91, 173, -1, -7, -87
TIME(18239), -0.0974194973234103, -74.556957590029, 143, 88, 91, 160, 13, 14, -106
TIME(18241), -0.0974194973234103, -74.556957590029, 143, 88, 91, 172, -4, -7, -85
TIME(18243), -0.0974194973234103, -74.556957590029, 143, 88, 91, 169, -2, -11, -84
TIME(18245), -0.0974194973234103, -74.556957590029, 143, 88, 91, 171, -10, -8, -80
TIME(18248), -0.0974194973234103, -74.556957590029, 143, 88, 91, 163, -10, -6, -81
TIME(18250), -0.0974194973234103, -74.556957590029, 143, 88, 91, 170, -9, 2, -86
TIME(18252), -0.0974194973234103, -74.556957590029, 143, 88, 91, 167, -4, -12, -82
TIME(18254), -0.0974194973234103, -74.556957590029, 143, 88, 91, 165, 3, -15, -87
TIME(18256), -0.0974194973234103, -74.556957590029, 143, 88, 91, 168, 4, -11, -89
TIME(18259), -0.0974194973234103, -74.556957590029, 143, 88, 91, 164, -15, -6, -87
TIME(18261), -0.0974194973234103, -74.556957590029, 143, 88, 91, 168, -5, -11, -82
TIME(18263), -0.0974194973234103, -74.556957590029, 143, 88, 91, 173, 4, 0, -94
TIME(18265), -0.0974194973234103, -74.556957590029, 143, 88, 91, 172, -1, 11, -99
TIME(18268), -0.0974194973234103, -74.556957590029, 143, 88, 91, 173, 2, -7, -90
TIME(18270), -0.0974194973234103, -74.556957590029, 143, 88, 91, 167, 7, -10, -92
TIME(18272), -0.0974194973234103, -74.556957590029, 143, 88, 91, 171, 2, -8, -89
TIME(18274), -0.0974194973234103, -74.556957590029, 143, 88, 91, 168, -5, 10, -94
TIME(18276), -0.0974194973234103, -74.556957590029, 143, 88, 91, 159, -18, -11, -71
TIME(18278), -0.0974194973234103, -74.556957590029, 143, 88, 91, 170, 0, -10, -86
TIME(18281), -0.0974194973234103, -74.556957590029, 143, 88, 91, 167, -6, -12, -81
TIME(18283), -0.0974194973234103, -74.556957590029, 143, 88, 91, 170, -3, -10, -84
TIME(18285), -0.0974194973234103, -74.556957590029, 143, 88, 91, 170, 4, -9, -90
TIME(18288), -0.0974194973234103, -74.556957590029, 143, 88, 91, 171, -6, -9, -84
TIME(18290), -0.0974194973234103, -74.556957590029, 143, 88, 91, 170, 3, -6, -92
TIME(18292), -0.0974194973234103, -74.556957590029, 143, 88, 91, 158, 6, 20, -109
TIME(18294), -0.0974194973234103, -74.556957590029, 143, 88, 91, 175, -3, -4, -87
TIME(18296), -0.0974194973234103, -74.556957590029, 143, 88, 91, 163, -10, 13, -93
TIME(18299), -0.0974194973234103, -74.556957590029, 143, 88, 91, 163, -5, 15, -97
TIME(18301), -0.0974194973234103, -74.556957590029, 143, 88, 91, 168, -12, -1, -83
TIME(18303), -0.0974194914957561, -74.556957590029, 143, 88, 91, 159, -16, 12, -86
TIME(18305), -0.0974194973234103, -74.556957590029, 143, 88, 91, 168, -1, 20, -107
TIME(18308), -0.0974194973234103, -74.556957590029, 143, 88, 91, 170, 0, -8, -88
TIME(18310), -0.0974194973234103, -74.556957590029, 143, 88, 91, 168, -5, -10, -83
TIME(18312), -0.0974194973234103, -74.556957590029, 143, 88, 91, 166, -9, -11, -79
TIME(18314), -0.0974194973234103, -74.556957590029, 143, 88, 91, 172, -6, 5, -90
TIME(18317), -0.0974194944095832, -74.556957590029, 143, 88, 91, 166, 3, -13, -87
TIME(18319), -0.0974194973234103, -74.556957590029, 143, 88, 91, 163, 5, 15, -105
TIME(18321), -0.0974194973234103, -74.556957590029, 143, 88, 91, 165, -9, -13, -74
TIME(18323), -0.0974194973234103, -74.556957590029, 143, 88, 91, 174, -3, -6, -87
TIME(18326), -0.0974194973234103, -74.556957590029, 143, 88, 91, 170, 8, -8, -90
TIME(18328), -0.0974194973234103, -74.556957590029, 143, 88, 91, 173, 5, -7, -92
TIME(18330), -0.0974194973234103, -74.556957590029, 143, 88, 91, 152, -27, -10, -65
TIME(18332), -0.0974194973234103, -74.556957590029, 143, 88, 91, 173, 2, -6, -90
TIME(18334), -0.0974194973234103, -74.556957590029, 143, 88, 91, 171, -5, -8, -84
TIME(18337), -0.0974194973234103, -74.556957590029, 143, 88, 91, 177, 1, -2, -92
TIME(18339), -0.0974194973234103, -74.556957590029, 143, 88, 91, 168, 2, 11, -101
TIME(18341), -0.0974194973234103, -74.556957590029, 143, 88, 91, 154, -25, -7, -68
TIME(18343), -0.0974194973234103, -74.556957590029, 143, 88, 91, 162, 14, 10, -110
TIME(18346), -0.0974194973234103, -74.556957590029, 143, 88, 91, 176, -4, -4, -94
TIME(18348), -0.0974194973234103, -74.556957590029, 143, 88, 91, 169, -1, -10, -88
TIME(18350), -0.0974194973234103, -74.556957590029, 143, 88, 91, 172, -2, -7, -88
TIME(18353), -0.0974194973234103, -74.556957590029, 143, 88, 91, 166, -12, -9, -73
TIME(18355), -0.0974194973234103, -74.556957590029, 143, 88, 91, 161, 13, 16, -107
TIME(18357), -0.0974194973234103, -74.556957590029, 143, 88, 91, 168, -15, -7, -76
TIME(18359), -0.0974194973234103, -74.556957590029, 143, 88, 91, 167, -9, -4, -82
TIME(18361), -0.0974194973234103, -74.556957590029, 143, 88, 91, 158, -19, -11, -71
TIME(18364), -0.0974194973234103, -74.556957590029, 143, 88, 91, 168, -6, -10, -81
TIME(18366), -0.0974194973234103, -74.556957590029, 143, 88, 91, 159, -12, 17, -93
TIME(18368), -0.0974194973234103, -74.556957590029, 143, 88, 91, 161, -15, -12, -73
TIME(18370), -0.0974194973234103, -74.556957590029, 143, 88, 91, 164, 6, 14, -110
TIME(18373), -0.0974194973234103, -74.556957590029, 143, 88, 91, 172, 2, -11, -83
TIME(18375), -0.0974194973234103, -74.556957590029, 143, 88, 91, 169, -10, 0, -84
TIME(18377), -0.0974194973234103, -74.556957590029, 143, 88, 91, 167, 4, 2, -97
TIME(18380), -0.0974194973234103, -74.556957590029, 143, 88, 91, 159, -15, -6, -77
TIME(18382), -0.0974194973234103, -74.556957590029, 143, 88, 91, 167, 1, -4, -91
TIME(18384), -0.0974194973234103, -74.556957590029, 143, 88, 91, 169, -10, 4, -87
TIME(18386), -0.0974194973234103, -74.556957590029, 143, 88, 91, 170, 0, -10, -87
TIME(18389), -0.0974194973234103, -74.556957590029, 143, 88, 91, 163, -14, -10, -75
TIME(18391), -0.0974194973234103, -74.556957590029, 143, 88, 91, 168, 0, -12, -85
TIME(18393), -0.0974194973234103, -74.556957590029, 143, 88, 91, 169, 5, -10, -90
TIME(18395), -0.0974194973234103, -74.556957590029, 143, 88, 91, 163, -13, -11, -76
TIME(18398), -0.0974194973234103, -74.556957590029, 143, 88, 91, 159, -20, -7, -81
TIME(18400), -0.0974194973234103, -74.556957590029, 143, 88, 91, 166, -9, -11, -79
TIME(18402), -0.0974194973234103, -74.556957590029, 143, 88, 91, 174, -5, -3, -86
TIME(18404), -0.0974194973234103, -74.556957590029, 143, 88, 91, 172, 7, -2, -97
TIME(18406), -0.0974194973234103, -74.556957590029, 143, 88, 91, 164, -11, -11, -77
TIME(18409), -0.0974194973234103, -74.556957590029, 143, 88, 91, 155, -23, -11, -57
TIME(18411), -0.0974194973234103, -74.556957590029, 143, 88, 91, 167, -5, -12, -81
TIME(18413), -0.0974194973234103, -74.556957590029, 143, 88, 91, 173, -2, -5, -84
TIME(18416), -0.0974194973234103, -74.556957590029, 143, 88, 91, 169, -21, -6, -72
TIME(18418), -0.0974194973234103, -74.556957590029, 143, 88, 91, 172, -3, -7, -86
TIME(18420), -0.0974194973234103, -74.556957590029, 143, 88, 91, 165, -13, -8, -77
TIME(18422), -0.0974194973234103, -74.556957590029, 143, 88, 91, 168, -11, -5, -81
TIME(18424), -0.0974194973234103, -74.556957590029, 143, 88, 91, 169, -7, -9, -81
TIME(18427), -0.0974194973234103, -74.556957590029, 143, 88, 91, 159, -3, 20, -102
TIME(18429), -0.0974194973234103, -74.556957590029, 143, 88, 91, 174, -3, -6, -87
TIME(18431), -0.0974194973234103, -74.556957590029, 143, 88, 91, 179, 0, 0, -92
TIME(18433), -0.0974194944095832, -74.556957590029, 143, 88, 91, 158, -11, 18, -94
TIME(18435), -0.0974194973234103, -74.556957590029, 143, 88, 91, 170, -7, -7, -83
TIME(18438), -0.0974194973234103, -74.556957590029, 143, 88, 91, 160, -18, -7, -74
TIME(18440), -0.0974194973234103, -74.556957590029, 143, 88, 91, 167, -9, -10, -80
TIME(18442), -0.0974194973234103, -74.556957590029, 143, 88, 91, 164, -15, -6, -77
TIME(18444), -0.0974194973234103, -74.556957590029, 143, 88, 91, 170, -4, -9, -83
TIME(18446), -0.0974194973234103, -74.556957590029, 143, 88, 91, 170, -3, -9, -85
TIME(18448), -0.0974194973234103, -74.556957590029, 143, 88, 91, 166, -9, -11, -78
TIME(18450), -0.0974194973234103, -74.556957590029, 143, 88, 91, 176, 0, 3, -94
TIME(18453), -0.0974194973234103, -74.556957590029, 143, 88, 91, 162, -5, 17, -98
TIME(18455), -0.0974194944095832, -74.556957590029, 143, 88, 91, 164, -2, 14, -99
TIME(18457), -0.0974194973234103, -74.556957590029, 143, 88, 91, 172, 1, -8, -87
TIME(18459), -0.0974194973234103, -74.556957590029, 143, 88, 91, 159, -15, -15, -71
TIME(18461), -0.0974194973234103, -74.556957590029, 143, 88, 91, 166, 8, -10, -88
TIME(18464), -0.0974194973234103, -74.556957590029, 143, 88, 91, 167, -3, -13, -82
TIME(18466), -0.0974194973234103, -74.556957590029, 143, 88, 91, 176, 3, 1, -95
TIME(18468), -0.0974194973234103, -74.556957590029, 143, 88, 91, 171, -6, -7, -83
TIME(18470), -0.0974194973234103, -74.556957590029, 143, 88, 91, 175, -1, -5, -89
TIME(18472), -0.0974194973234103, -74.556957590029, 143, 88, 91, 168, -9, -9, -80
TIME(18474), -0.0974194973234103, -74.556957590029, 143, 88, 91, 156, -20, 12, -84
TIME(18477), -0.0974194973234103, -74.556957590029, 143, 88, 91, 168, -9, -9, -80
TIME(18479), -0.0974194973234103, -74.556957590029, 143, 88, 91, 177, -2, -2, -90
TIME(18481), -0.0974194973234103, -74.556957590029, 143, 88, 91, 164, -10, -8, -73
TIME(18483), -0.0974194973234103, -74.556957590029, 143, 88, 91, 164, 7, 13, -114
TIME(18485), -0.0974194973234103, -74.556957590029, 143, 88, 91, 162, -10, -15, -76
TIME(18488), -0.0974194973234103, -74.556957590029, 143, 88, 91, 158, -21, -6, -72
TIME(18490), -0.0974194973234103, -74.556957590029, 143, 88, 91, 161, -12, -14, -65
TIME(18492), -0.0974194973234103, -74.556957590029, 143, 88, 91, 171, -6, -7, -84
TIME(18494), -0.0974194973234103, -74.556957590029, 143, 88, 91, 172, -6, -5, -85
TIME(18496), -0.0974194973234103, -74.556957590029, 143, 88, 91, 165, -11, -11, -77
TIME(18498), -0.0974194973234103, -74.556957590029, 143, 88, 91, 168, -11, -4, -81
TIME(18500), -0.0974194973234103, -74.556957590029, 143, 88, 91, 168, 7, -10, -92
TIME(18503), -0.0974194973234103, -74.556957590029, 143, 88, 91, 170, -7, -8, -82
TIME(18505), -0.0974194973234103, -74.556957590029, 143, 88, 91, 172, -3, -7, -85
TIME(18507), -0.0974194973234103, -74.556957590029, 143, 88, 91, 172, 0, -9, -87
TIME(18509), -0.0974194973234103, -74.556957590029, 143, 88, 91, 170, -5, -5, -90
TIME(18511), -0.0974194973234103, -74.556957590029, 143, 88, 91, 171, 2, -8, -89
TIME(18513), -0.0974194973234103, -74.556957590029, 143, 88, 91, 169, -7, -9, -77
TIME(18516), -0.0974194973234103, -74.556957590029, 143, 88, 91, 171, -5, -8, -83
TIME(18518), -0.0974194973234103, -74.556957590029, 143, 88, 91, 170, -2, -10, -85
TIME(18520), -0.0974194973234103, -74.556957590029, 143, 88, 91, 168, 5, -10, -91
TIME(18522), -0.0974194973234103, -74.556957590029, 143, 88, 91, 173, -4, -5, -86
TIME(18524), -0.0974194973234103, -74.556957590029, 143, 88, 91, 166, 0, 13, -99
TIME(18526), -0.0974194973234103, -74.556957590029, 143, 88, 91, 165, -14, -4, -86
TIME(18528), -0.0974194973234103, -74.556957590029, 143, 88, 91, 175, -3, 3, -92
TIME(18530), -0.0974194973234103, -74.556957590029, 143, 88, 91, 167, -2, 12, -98
TIME(18533), -0.0974194944095832, -74.556957590029, 143, 88, 91, 169, 2, 10, -100
TIME(18535), -0.0974194973234103, -74.556957590029, 143, 88, 91, 164, -16, -4, -78
TIME(18537), -0.0974194973234103, -74.556957590029, 143, 88, 91, 172, 4, -7, -91
TIME(18539), -0.0974194973234103, -74.556957590029, 143, 88, 91, 169, -4, -4, -87
TIME(18541), -0.0974194973234103, -74.556957590029, 143, 88, 91, 174, 1, -7, -89
TIME(18543), -0.0974194973234103, -74.556957590029, 143, 88, 91, 165, -8, -12, -78
TIME(18546), -0.0974194973234103, -74.556957590029, 143, 88, 91, 166, 5, -12, -85
TIME(18548), -0.0974194973234103, -74.556957590029, 143, 88, 91, 167, 9, -8, -94
TIME(18550), -0.0974194973234103, -74.556957590029, 143, 88, 91, 170, -9, -5, -82
TIME(18552), -0.0974194973234103, -74.556957590029, 143, 88, 91, 174, 2, -5, -91
TIME(18554), -0.0974194973234103, -74.556957590029, 143, 88, 91, 168, -7, -10, -81
TIME(18557), -0.0974194973234103, -74.556957590029, 143, 88, 91, 169, -3, -11, -89
TIME(18559), -0.0974194973234103, -74.556957590029, 143, 88, 91, 175, 3, 2, -97
TIME(18561), -0.0974194973234103, -74.556957590029, 143, 88, 91, 168, 1, 18, -111
TIME(18563), -0.0974194973234103, -74.556957590029, 143, 88, 91, 171, 15, -19, -93
TIME(18566), -0.0974194973234103, -74.556957590029, 143, 88, 91, 163, 4, 15, -105
TIME(18568), -0.0974194973234103, -74.556957590029, 143, 88, 91, 168, -9, -8, -80
TIME(18570), -0.0974194973234103, -74.556957590029, 143, 88, 91, 167, -10, -7, -80
TIME(18572), -0.0974194973234103, -74.556957590029, 143, 88, 91, 172, 0, 7, -93
TIME(18574), -0.0974194973234103, -74.556957590029, 143, 88, 91, 169, -6, -8, -83
TIME(18577), -0.0974194973234103, -74.556957590029, 143, 88, 91, 172, 3, -7, -90
TIME(18579), -0.0974194973234103, -74.556957590029, 143, 88, 91, 174, 0, -6, -89
TIME(18581), -0.0974194973234103, -74.556957590029, 143, 88, 91, 169, -7, -9, -81
TIME(18583), -0.0974194973234103, -74.556957590029, 143, 88, 91, 174, 3, -5, -92
TIME(18585), -0.0974194944095832, -74.556957590029, 143, 88, 91, 166, -6, 12, -97
TIME(18588), -0.0974194973234103, -74.556957590029, 143, 88, 91, 165, -12, -9, -78
TIME(18590), -0.0974194973234103, -74.556957590029, 143, 88, 91, 175, 4, -7, -95
TIME(18592), -0.0974194973234103, -74.556957590029, 143, 88, 91, 174, -1, -7, -94
TIME(18595), -0.0974194973234103, -74.556957590029, 143, 88, 91, 174, 1, -5, -90
TIME(18597), -0.0974194973234103, -74.556957590029, 143, 88, 91, 162, -9, -15, -76
TIME(18599), -0.0974194973234103, -74.556957590029, 143, 88, 91, 172, 1, -7, -89
TIME(18601), -0.0974194973234103, -74.556957590029, 143, 88, 91, 170, -6, -8, -83
TIME(18603), -0.0974194973234103, -74.556957590029, 143, 88, 91, 172, -4, -7, -85
TIME(18606), -0.0974194973234103, -74.556957590029, 143, 88, 91, 169, -7, -9, -84
TIME(18608), -0.0974194973234103, -74.556957590029, 143, 88, 91, 168, -2, -12, -84
TIME(18610), -0.0974194973234103, -74.556957590029, 143, 88, 91, 164, -3, 15, -99
TIME(18612), -0.0974194973234103, -74.556957590029, 143, 88, 91, 171, -4, -9, -85
TIME(18615), -0.0974194973234103, -74.556957590029, 143, 88, 91, 177, 8, 0, -99
TIME(18617), -0.0974194973234103, -74.556957590029, 143, 88, 91, 163, 14, 8, -108
TIME(18619), -0.0974194973234103, -74.556957590029, 143, 88, 91, 166, -12, -7, -79
TIME(18621), -0.0974194973234103, -74.556957590029, 143, 88, 91, 169, -5, -10, -82
TIME(18624), -0.0974194973234103, -74.556957590029, 143, 88, 91, 168, 5, -11, -90
TIME(18626), -0.0974194973234103, -74.556957590029, 143, 88, 91, 172, -6, -5, -84
TIME(18628), -0.0974194973234103, -74.556957590029, 143, 88, 91, 158, -19, -11, -70
TIME(18630), -0.0974194973234103, -74.556957590029, 143, 88, 91, 169, -3, -12, -79
TIME(18633), -0.0974194973234103, -74.556957590029, 143, 88, 91, 174, 1, 6, -97
TIME(18635), -0.0974194973234103, -74.556957590029, 143, 88, 91, 167, 8, 18, -109
TIME(18637), -0.0974194973234103, -74.556957590029, 143, 88, 91, 174, 2, -6, -91
TIME(18639), -0.0974194973234103, -74.556957590029, 143, 88, 91, 171, -7, -7, -83
TIME(18641), -0.0974194973234103, -74.556957590029, 143, 88, 91, 163, -13, -12, -75
TIME(18644), -0.0974194973234103, -74.556957590029, 143, 88, 91, 166, -4, -13, -82
TIME(18646), -0.0974194973234103, -74.556957590029, 143, 88, 91, 174, 4, 3, -97
TIME(18648), -0.0974194973234103, -74.556957590029, 143, 88, 91, 163, 6, 14, -106
TIME(18650), -0.0974194973234103, -74.556957590029, 143, 88, 91, 177, 0, -3, -90
TIME(18653), -0.0974194973234103, -74.556957590029, 143, 88, 91, 169, 2, -10, -88
TIME(18655), -0.0974194973234103, -74.556957590029, 143, 88, 91, 170, 1, -10, -92
TIME(18658), -0.0974194973234103, -74.556957590029, 143, 88, 91, 174, -1, -7, -88
TIME(18660), -0.0974194973234103, -74.556957590029, 143, 88, 91, 173, 1, -3, -91
TIME(18662), -0.0974194973234103, -74.556957590029, 143, 88, 91, 170, -7, -8, -83
TIME(18664), -0.0974194973234103, -74.556957590029, 143, 88, 91, 162, 0, 17, -102
TIME(18666), -0.0974194973234103, -74.556957590029, 143, 88, 91, 171, -2, -9, -85
TIME(18668), -0.0974194973234103, -74.556957590029, 143, 88, 91, 174, 4, -5, -92
TIME(18671), -0.0974194973234103, -74.556957590029, 143, 88, 91, 170, -6, -8, -83
TIME(18673), -0.0974194973234103, -74.556957590029, 143, 88, 91, 171, 0, -9, -81
TIME(18675), -0.0974194973234103, -74.556957590029, 143, 88, 91, 173, -2, -9, -90
TIME(18678), -0.0974194944095832, -74.556957590029, 143, 88, 91, 170, 0, 7, -91
TIME(18680), -0.0974194973234103, -74.556957590029, 143, 88, 91, 170, -2, -9, -86
TIME(18682), -0.0974194973234103, -74.556957590029, 143, 88, 91, 168, 9, -6, -96
TIME(18684), -0.0974194973234103, -74.556957590029, 143, 88, 91, 168, -9, -7, -81
TIME(18687), -0.0974194973234103, -74.556957590029, 143, 88, 91, 173, -1, -7, -87
TIME(18689), -0.0974194973234103, -74.556957590029, 143, 88, 91, 173, 3, -6, -92
TIME(18691), -0.0974194973234103, -74.556957590029, 143, 88, 91, 168, -11, -8, -79
TIME(18694), -0.0974194973234103, -74.556957590029, 143, 88, 91, 163, -15, -9, -74
TIME(18696), -0.0974194973234103, -74.556957590029, 143, 88, 91, 166, 10, 19, -112
TIME(18698), -0.0974194973234103, -74.556957590029, 143, 88, 91, 172, 1, -8, -88
TIME(18700), -0.0974194973234103, -74.556957590029, 143, 88, 91, 170, -5, -9, -83
TIME(18702), -0.0974194973234103, -74.556957590029, 143, 88, 91, 175, 0, -5, -90
TIME(18705), -0.0974194973234103, -74.556957590029, 143, 88, 91, 172, -1, -8, -87
TIME(18707), -0.0974194973234103, -74.556957590029, 143, 88, 91, 177, -1, -3, -90
TIME(18709), -0.0974194973234103, -74.556957590029, 143, 88, 91, 172, -5, -7, -82
TIME(18712), -0.0974194973234103, -74.556957590029, 143, 88, 91, 173, 0, -7, -82
TIME(18714), -0.0974194973234103, -74.556957590029, 143, 88, 91, 173, 3, -6, -91
TIME(18716), -0.0974194973234103, -74.556957590029, 143, 88, 91, 174, -1, -6, -88
TIME(18718), -0.0974194973234103, -74.556957590029, 143, 88, 91, 171, 1, -9, -88
TIME(18720), -0.0974194973234103, -74.556957590029, 143, 88, 91, 174, 4, -4, -93
TIME(18723), -0.0974194973234103, -74.556957590029, 143, 88, 91, 164, -15, -6, -77
TIME(18725), -0.0974194973234103, -74.556957590029, 143, 88, 91, 169, -1, -11, -85
TIME(18727), -0.0974194973234103, -74.556957590029, 143, 88, 91, 166, -12, -7, -83
TIME(18730), -0.0974194973234103, -74.556957590029, 143, 88, 91, 154, -26, -4, -77
TIME(18732), -0.0974194973234103, -74.556957590029, 143, 88, 91, 171, -7, 1, -87
TIME(18734), -0.0974194973234103, -74.556957590029, 143, 88, 91, 174, -5, -4, -86
TIME(18736), -0.0974194973234103, -74.556957590029, 143, 88, 91, 169, -8, -7, -81
TIME(18738), -0.0974194973234103, -74.556957590029, 143, 88, 91, 171, 3, -8, -90
TIME(18741), -0.0974194973234103, -74.556957590029, 143, 88, 91, 164, -14, -8, -76
TIME(18743), -0.0974194944095832, -74.556957590029, 143, 88, 91, 165, 2, 13, -99
TIME(18745), -0.0974194973234103, -74.556957590029, 143, 88, 91, 171, -2, -9, -86
TIME(18747), -0.0974194973234103, -74.556957590029, 143, 88, 91, 170, -4, -9, -83
TIME(18749), -0.0974194973234103, -74.556957590029, 143, 88, 91, 163, -6, 14, -96
TIME(18752), -0.0974194973234103, -74.556957590029, 143, 88, 91, 169, 6, -8, -91
TIME(18754), -0.0974194973234103, -74.556957590029, 143, 88, 91, 172, 4, -6, -92
TIME(18757), -0.0974194944095832, -74.556957590029, 143, 88, 91, 158, -17, -13, -74
TIME(18759), -0.0974194973234103, -74.556957590029, 143, 88, 91, 173, -6, -5, -85
TIME(18761), -0.0974194973234103, -74.556957590029, 143, 88, 91, 175, 1, -5, -90
TIME(18763), -0.0974194973234103, -74.556957590029, 143, 88, 91, 154, -24, -10, -67
TIME(18766), -0.0974194944095832, -74.556957590029, 143, 88, 91, 164, -1, 15, -101
TIME(18768), -0.0974194973234103, -74.556957590029, 143, 88, 91, 173, 4, -4, -93
TIME(18770), -0.0974194973234103, -74.556957590029, 143, 88, 91, 171, -1, -8, -89
TIME(18772), -0.0974194973234103, -74.556957590029, 143, 88, 91, 172, 4, -9, -91
TIME(18775), -0.0974194973234103, -74.556957590029, 143, 88, 91, 175, 2, -7, -90
TIME(18777), -0.0974194944095832, -74.556957590029, 143, 88, 91, 168, -11, -5, -80
TIME(18779), -0.0974194944095832, -74.556957590029, 143, 88, 91, 161, -3, 18, -101
TIME(18781), -0.0974194973234103, -74.556957590029, 143, 88, 91, 165, -13, -8, -77
TIME(18784), -0.0974194973234103, -74.556957590029, 143, 88, 91, 170, -2, -10, -85
TIME(18786), -0.0974194973234103, -74.556957590029, 143, 88, 91, 173, -5, -6, -85
TIME(18788), -0.0974194973234103, -74.556957590029, 143, 88, 91, 160, -15, -13, -72
TIME(18790), -0.0974194973234103, -74.556957590029, 143, 88, 91, 158, 2, 22, -105
TIME(18793), -0.0974194973234103, -74.556957590029, 143, 88, 91, 168, 2, -9, -89
TIME(18795), -0.0974194973234103, -74.556957590029, 143, 88, 91, 161, -18, -7, -74
TIME(18797), -0.0974194973234103, -74.556957590029, 143, 88, 91, 169, -7, -8, -82
TIME(18799), -0.0974194973234103, -74.556957590029, 143, 88, 91, 158, 14, 15, -113
TIME(18801), -0.0974194914957561, -74.556957590029, 143, 88, 91, 175, -2, 4, -93
TIME(18804), -0.0974194973234103, -74.556957590029, 143, 88, 91, 170, -7, -8, -84
TIME(18806), -0.0974194973234103, -74.556957590029, 143, 88, 91, 165, -7, -13, -75
TIME(18808), -0.0974194973234103, -74.556957590029, 143, 88, 91, 171, 3, -9, -89
TIME(18811), -0.0974194973234103, -74.556957590029, 143, 88, 91, 171, -6, -11, -79
TIME(18813), -0.0974194973234103, -74.556957590029, 143, 88, 91, 166, -7, -10, -81
TIME(18815), -0.0974194973234103, -74.556957590029, 143, 88, 91, 161, -18, -6, -74
TIME(18818), -0.0974194973234103, -74.556957590029, 143, 88, 91, 171, -8, -5, -83
TIME(18820), -0.0974194973234103, -74.556957590029, 143, 88, 91, 173, -6, -4, -85
TIME(18822), -0.0974194973234103, -74.556957590029, 143, 88, 91, 171, 7, -5, -95
TIME(18824), -0.0974194944095832, -74.556957590029, 143, 88, 91, 168, -6, -13, -80
TIME(18827), -0.0974194973234103, -74.556957590029, 143, 88, 91, 163, -10, -14, -76
TIME(18829), -0.0974194973234103, -74.556957590029, 143, 88, 91, 171, 3, -8, -90
TIME(18831), -0.0974194973234103, -74.556957590029, 143, 88, 91, 162, -16, -7, -75
TIME(18833), -0.0974194973234103, -74.556957590029, 143, 88, 91, 169, -4, -10, -85
TIME(18835), -0.0974194973234103, -74.556957590029, 143, 88, 91, 171, 2, -9, -89
TIME(18838), -0.0974194973234103, -74.556957590029, 143, 88, 91, 169, -5, -10, -84
TIME(18840), -0.0974194973234103, -74.556957590029, 143, 88, 91, 156, -14, -8, -76
TIME(18842), -0.0974194973234103, -74.556957590029, 143, 88, 91, 172, -1, -6, -88
TIME(18845), -0.0974194973234103, -74.556957590029, 143, 88, 91, 173, -4, -6, -85
TIME(18847), -0.0974194973234103, -74.556957590029, 143, 88, 91, 166, -11, -9, -78
TIME(18849), -0.0974194973234103, -74.556957590029, 143, 88, 91, 166, 9, -9, -87
TIME(18851), -0.0974194973234103, -74.556957590029, 143, 88, 91, 174, -2, -6, -86
TIME(18854), -0.0974194973234103, -74.556957590029, 143, 88, 91, 169, -9, -7, -81
TIME(18856), -0.0974194973234103, -74.556957590029, 143, 88, 91, 171, -1, -9, -86
TIME(18858), -0.0974194973234103, -74.556957590029, 143, 88, 91, 169, 5, -9, -91
TIME(18861), -0.0974194973234103, -74.556957590029, 143, 88, 91, 170, -9, -5, -82
TIME(18863), -0.0974194973234103, -74.556957590029, 143, 88, 91, 167, 3, -13, -87
TIME(18865), -0.0974194973234103, -74.556957590029, 143, 88, 91, 173, -1, -7, -83
TIME(18867), -0.0974194973234103, -74.556957590029, 143, 88, 91, 169, 6, -7, -93
TIME(18869), -0.0974194973234103, -74.556957590029, 143, 88, 91, 157, -6, 21, -100
TIME(18871), -0.0974194973234103, -74.556957590029, 143, 88, 91, 172, 1, -8, -89
TIME(18873), -0.0974194973234103, -74.556957590029, 143, 88, 91, 172, -2, -7, -86
TIME(18876), -0.0974194973234103, -74.556957590029, 143, 88, 91, 165, -9, -12, -78
TIME(18878), -0.0974194973234103, -74.556957590029, 143, 88, 91, 175, 4, 2, -90
TIME(18880), -0.0974194973234103, -74.556957590029, 143, 88, 91, 174, 3, 9, -101
TIME(18883), -0.0974194973234103, -74.556957590029, 143, 88, 91, 169, -1, -9, -86
TIME(18885), -0.0974194973234103, -74.556957590029, 143, 88, 91, 173, -5, -7, -84
TIME(18887), -0.0974194973234103, -74.556957590029, 143, 88, 91, 170, 0, -10, -86
TIME(18889), -0.0974194973234103, -74.556957590029, 143, 88, 91, 170, 9, -1, -99
TIME(18891), -0.0974194973234103, -74.556957590029, 143, 88, 91, 169, 2, -11, -88
TIME(18894), -0.0974194973234103, -74.556957590029, 143, 88, 91, 152, -28, -4, -69
TIME(18896), -0.0974194973234103, -74.556957590029, 143, 88, 91, 158, -20, -13, -73
TIME(18898), -0.0974194973234103, -74.556957590029, 143, 88, 91, 168, 4, -11, -89
TIME(18900), -0.0974194973234103, -74.556957590029, 143, 88, 91, 159, -17, -12, -72
TIME(18903), -0.0974195002372374, -74.556957590029, 143, 88, 91, 167, 2, -12, -87
TIME(18905), -0.0974194973234103, -74.556957590029, 143, 88, 91, 173, -7, -2, -86
TIME(18907), -0.0974194973234103, -74.556957590029, 143, 88, 91, 174, 2, -5, -94
TIME(18909), -0.0974194973234103, -74.556957590029, 143, 88, 91, 170, -2, -10, -84
TIME(18911), -0.0974194973234103, -74.556957590029, 143, 88, 91, 174, 1, -6, -84
TIME(18914), -0.0974194973234103, -74.556957590029, 143, 88, 91, 166, -13, -7, -81
TIME(18916), -0.0974194973234103, -74.556957590029, 143, 88, 91, 169, 7, -7, -94
TIME(18918), -0.0974194973234103, -74.556957590029, 143, 88, 91, 170, 0, -10, -87
TIME(18921), -0.0974194973234103, -74.556957590029, 143, 88, 91, 173, 5, 3, -98
TIME(18923), -0.0974194973234103, -74.556957590029, 143, 88, 91, 163, -14, -9, -76
TIME(18925), -0.0974194973234103, -74.556957590029, 143, 88, 91, 172, -8, -1, -84
TIME(18928), -0.0974194973234103, -74.556957590029, 143, 88, 91, 173, 5, -3, -91
TIME(18930), -0.0974194944095832, -74.556957590029, 143, 88, 91, 168, -11, 5, -86
TIME(18932), -0.0974194973234103, -74.556957590029, 143, 88, 91, 165, 8, -11, -92
TIME(18934), -0.0974194973234103, -74.556957590029, 143, 88, 91, 174, 2, -6, -90
TIME(18936), -0.0974194973234103, -74.556957590029, 143, 88, 91, 166, -4, 12, -96
TIME(18939), -0.0974194973234103, -74.556957590029, 143, 88, 91, 171, 5, -7, -87
TIME(18941), -0.0974194973234103, -74.556957590029, 143, 88, 91, 172, -2, -5, -88
TIME(18944), -0.0974194973234103, -74.556957590029, 143, 88, 91, 167, -3, -13, -83
TIME(18946), -0.0974194944095832, -74.556957590029, 143, 88, 91, 168, 1, 10, -100
TIME(18948), -0.0974194973234103, -74.556957590029, 143, 88, 91, 170, 1, -10, -87
TIME(18951), -0.0974194973234103, -74.556957590029, 143, 88, 91, 161, -17, -10, -68
TIME(18953), -0.0974194973234103, -74.556957590029, 143, 88, 91, 171, 5, -7, -93
TIME(18955), -0.0974194973234103, -74.556957590029, 143, 88, 91, 175, 1, -4, -85
TIME(18958), -0.0974194944095832, -74.556957590029, 143, 88, 91, 161, -2, 13, -98
TIME(18960), -0.0974194973234103, -74.556957590029, 143, 88, 91, 160, -16, -12, -72
TIME(18962), -0.0974194973234103, -74.556957590029, 143, 88, 91, 167, -9, -9, -80
TIME(18964), -0.0974194973234103, -74.556957590029, 143, 88, 91, 176, -3, -3, -88
TIME(18967), -0.0974194973234103, -74.556957590029, 143, 88, 91, 171, -6, -7, -83
TIME(18969), -0.0974194973234103, -74.556957590029, 143, 88, 91, 167, 9, -8, -86
TIME(18971), -0.0974194973234103, -74.556957590029, 143, 88, 91, 174, 0, -6, -89
TIME(18973), -0.0974194973234103, -74.556957590029, 143, 88, 91, 171, -2, -3, -89
TIME(18975), -0.0974194973234103, -74.556957590029, 143, 88, 91, 168, -10, -6, -81
TIME(18978), -0.0974194973234103, -74.556957590029, 143, 88, 91, 165, -7, -13, -79
TIME(18980), -0.0974194973234103, -74.556957590029, 143, 88, 91, 163, 7, -15, -89
TIME(18982), -0.0974194973234103, -74.556957590029, 143, 88, 91, 165, -11, -11, -80
TIME(18984), -0.0974194973234103, -74.556957590029, 143, 88, 91, 170, 3, -9, -89
TIME(18987), -0.0974194973234103, -74.556957590029, 143, 88, 91, 164, 7, 24, -115
TIME(18989), -0.0974194973234103, -74.556957590029, 143, 88, 91, 173, -3, -6, -86
TIME(18991), -0.0974194914957561, -74.556957590029, 143, 88, 91, 165, -15, -2, -80
TIME(18993), -0.0974194973234103, -74.556957590029, 143, 88, 91, 171, -3, -8, -85
TIME(18995), -0.0974194944095832, -74.556957590029, 143, 88, 91, 174, -2, 5, -89
TIME(18998), -0.0974194973234103, -74.556957590029, 143, 88, 91, 177, 1, -3, -91
TIME(19000), -0.0974194973234103, -74.556957590029, 143, 88, 91, 163, -17, -5, -78
TIME(19002), -0.0974194973234103, -74.556957590029, 143, 88, 91, 171, -3, -8, -82
TIME(19005), -0.0974194973234103, -74.556957590029, 143, 88, 91, 168, -14, -7, -77
TIME(19007), -0.0974194973234103, -74.556957590029, 143, 88, 91, 176, -1, -4, -89
TIME(19009), -0.0974194973234103, -74.556957590029, 143, 88, 91, 172, -1, -8, -87
TIME(19011), -0.0974194973234103, -74.556957590029, 143, 88, 91, 174, 5, -2, -95
TIME(19013), -0.0974194973234103, -74.556957590029, 143, 88, 91, 162, 2, 16, -104
TIME(19016), -0.0974194973234103, -74.556957590029, 143, 88, 91, 171, 3, -8, -90
TIME(19018), -0.0974194973234103, -74.556957590029, 143, 88, 91, 164, -11, 4, -86
TIME(19020), -0.0974194944095832, -74.556957590029, 143, 88, 91, 161, -8, 3, -87
TIME(19022), -0.0974194973234103, -74.556957590029, 143, 88, 91, 174, 1, -6, -89
TIME(19024), -0.0974194973234103, -74.556957590029, 143, 88, 91, 164, -13, -10, -76
TIME(19026), -0.0974194973234103, -74.556957590029, 143, 88, 91, 165, -15, -4, -78
TIME(19029), -0.0974194973234103, -74.556957590029, 143, 88, 91, 170, 3, -10, -91
TIME(19031), -0.0974194973234103, -74.556957590029, 143, 88, 91, 167, -7, -9, -82
TIME(19034), -0.0974194973234103, -74.556957590029, 143, 88, 91, 174, 3, -5, -92
TIME(19036), -0.0974194973234103, -74.556957590029, 143, 88, 91, 170, 3, -9, -90
TIME(19038), -0.0974194973234103, -74.556957590029, 143, 88, 91, 169, -9, -6, -81
TIME(19041), -0.0974194973234103, -74.556957590029, 143, 88, 91, 168, -3, -13, -78
TIME(19043), -0.0974194973234103, -74.556957590029, 143, 88, 91, 175, 3, -6, -91
TIME(19045), -0.0974194973234103, -74.556957590029, 143, 88, 91, 169, 3, -10, -89
TIME(19048), -0.0974194973234103, -74.556957590029, 143, 88, 91, 174, -1, -6, -88
TIME(19050), -0.0974194973234103, -74.556957590029, 143, 88, 91, 169, -6, -9, -82
TIME(19052), -0.0974194973234103, -74.556957590029, 143, 88, 91, 173, -4, -5, -84
TIME(19055), -0.0974194973234103, -74.556957590029, 143, 88, 91, 172, -1, -12, -84
TIME(19057), -0.0974194973234103, -74.556957590029, 143, 88, 91, 162, -11, 13, -91
TIME(19059), -0.0974194973234103, -74.556957590029, 143, 88, 91, 165, 7, 11, -105
TIME(19062), -0.0974194973234103, -74.556957590029, 143, 88, 91, 173, -7, -1, -88
TIME(19064), -0.0974194973234103, -74.556957590029, 143, 88, 91, 169, 7, -9, -88
TIME(19066), -0.0974194973234103, -74.556957590029, 143, 88, 91, 173, 2, -4, -92
TIME(19069), -0.0974194973234103, -74.556957590029, 143, 88, 91, 166, -8, -11, -79
TIME(19071), -0.0974195002372374, -74.556957590029, 143, 88, 91, 161, -17, -9, -73
TIME(19073), -0.0974194944095832, -74.556957590029, 143, 88, 91, 167, -11, -5, -80
TIME(19076), -0.0974194944095832, -74.556957590029, 143, 88, 91, 165, 1, 14, -102
TIME(19078), -0.0974194973234103, -74.556957590029, 143, 88, 91, 150, 10, 11, -107
TIME(19080), -0.0974194973234103, -74.556957590029, 143, 88, 91, 171, 6, -6, -94
TIME(19082), -0.0974194973234103, -74.556957590029, 143, 88, 91, 170, 8, -6, -95
TIME(19085), -0.0974194973234103, -74.556957590029, 143, 88, 91, 169, -6, -10, -82
TIME(19087), -0.0974194973234103, -74.556957590029, 143, 88, 91, 172, -6, 4, -91
TIME(19089), -0.0974194973234103, -74.556957590029, 143, 88, 91, 166, -14, -6, -78
TIME(19092), -0.0974194973234103, -74.556957590029, 143, 88, 91, 172, -6, -6, -84
TIME(19094), -0.0974194973234103, -74.556957590029, 143, 88, 91, 167, -9, -9, -87
TIME(19096), -0.0974194973234103, -74.556957590029, 143, 88, 91, 175, -3, -6, -86
TIME(19099), -0.0974194973234103, -74.556957590029, 143, 88, 91, 173, -4, -6, -85
TIME(19101), -0.0974194973234103, -74.556957590029, 143, 88, 91, 163, -14, -10, -75
TIME(19103), -0.0974194973234103, -74.556957590029, 143, 88, 91, 168, 2, -12, -87
TIME(19105), -0.0974194973234103, -74.556957590029, 143, 88, 91, 158, -17, -15, -70
TIME(19108), -0.0974194973234103, -74.556957590029, 143, 88, 91, 167, -9, 9, -93
TIME(19110), -0.0974194973234103, -74.556957590029, 143, 88, 91, 172, -8, -11, -79
TIME(19112), -0.0974194973234103, -74.556957590029, 143, 88, 91, 169, -5, -10, -83
TIME(19114), -0.0974194973234103, -74.556957590029, 143, 88, 91, 163, -17, -4, -77
TIME(19117), -0.0974194973234103, -74.556957590029, 143, 88, 91, 171, -8, -4, -83
TIME(19119), -0.0974194973234103, -74.556957590029, 143, 88, 91, 174, 3, -5, -91
TIME(19121), -0.0974194973234103, -74.556957590029, 143, 88, 91, 167, 3, -12, -87
TIME(19124), -0.0974194973234103, -74.556957590029, 143, 88, 91, 172, -1, -6, -88
TIME(19126), -0.0974194973234103, -74.556957590029, 143, 88, 91, 167, -8, -11, -80
TIME(19128), -0.0974194973234103, -74.556957590029, 143, 88, 91, 174, -1, -6, -88
TIME(19130), -0.0974194973234103, -74.556957590029, 143, 88, 91, 162, -15, -10, -74
TIME(19132), -0.0974194973234103, -74.556957590029, 143, 88, 91, 166, -10, -10, -78
TIME(19135), -0.0974194973234103, -74.556957590029, 143, 88, 91, 169, 9, -6, -101
TIME(19137), -0.0974194973234103, -74.556957590029, 143, 88, 91, 170, -4, -9, -83
TIME(19139), -0.0974194973234103, -74.556957590029, 143, 88, 91, 164, -14, -7, -73
TIME(19142), -0.0974194973234103, -74.556957590029, 143, 88, 91, 167, -7, -9, -76
TIME(19144), -0.0974194973234103, -74.556957590029, 143, 88, 91, 171, 1, -10, -88
TIME(19146), -0.0974194973234103, -74.556957590029, 143, 88, 91, 168, 1, -12, -86
TIME(19149), -0.0974194973234103, -74.556957590029, 143, 88, 91, 171, -7, -7, -83
TIME(19151), -0.0974194973234103, -74.556957590029, 143, 88, 91, 169, -7, -9, -81
